{
	"hotspots":[
		{
		"id":"1",
                "title":"Battlenet Ηλιούπολης",
                "address":"Χάνι Γραβιάς 38",
                "lat":40.6718692,
                "lng":22.921857
            },
            {
		"id":"2",
                "title":"Ψητοπωλείο \"Στο Άψε Ψήσε\"",
                "address":"25ης Μαρτίου 78, Χαριλάου",
                "lat":40.6748692,
                "lng":22.924857
            },
		 {
		"id":"3",
                "title":"Cafe bar Tath",
                "address":"25ης Μαρτίου 78, Χαριλάου",
                "lat":40.6718692,
                "lng":22.923857
            },
		{
		"id":"1",
                "title":"Battlenet Ηλιούπολης",
                "address":"Χάνι Γραβιάς 38",
                "lat":40.6718692,
                "lng":22.921857
            },
            {
		"id":"2",
                "title":"Ψητοπωλείο \"Στο Άψε Ψήσε\"",
                "address":"25ης Μαρτίου 78, Χαριλάου",
                "lat":40.6744692,
                "lng":22.928857
            },
		 {
		"id":"3",
                "title":"Cafe bar Tath",
                "address":"25ης Μαρτίου 78, Χαριλάου",
                "lat":40.6738692,
                "lng":22.926857
            },
		{
		"id":"1",
                "title":"Battlenet Ηλιούπολης",
                "address":"Χάνι Γραβιάς 38",
                "lat":40.6768692,
                "lng":22.923857
            },
            {
		"id":"2",
                "title":"Ψητοπωλείο \"Στο Άψε Ψήσε\"",
                "address":"25ης Μαρτίου 78, Χαριλάου",
                "lat":40.6448692,
                "lng":22.914857
            },
		 {
		"id":"3",
                "title":"Cafe bar Tath",
                "address":"25ης Μαρτίου 78, Χαριλάου",
                "lat":40.6518692,
                "lng":22.913857
            }
	]
}
